City,Coundiness,Country,Date,Humidity,Latitude,Longitude,Maximum Temperature,Wind Speed
Sur,0,OM,1547313468,100,22.57,59.53,71.9,13.67
Bluff,0,AU,1547313392,84,-23.58,149.07,69.15,7.18
Richards Bay,0,ZA,1547313473,83,-28.77,32.06,72.62,4.94
Cape Town,75,ZA,1547312400,60,-33.93,18.42,68,17.22
Port Blair,88,IN,1547313477,97,11.67,92.75,83.42,11.32
Lingyuan,0,CN,1547313479,65,41.24,119.4,9.98,3.6
Comodoro Rivadavia,40,AR,1547312400,22,-45.87,-67.48,69.8,11.41
Yulara,0,AU,1547308800,17,-25.24,130.99,91.4,8.05
Dunedin,56,NZ,1547313357,96,-45.87,170.5,44,3.49
Hithadhoo,12,MV,1547313488,100,-0.6,73.08,82.02,2.59
Baghdad,75,IQ,1547312400,53,33.3,44.38,50,3.36
Manta,0,RO,1547313493,60,45.1,24.1,9.53,2.59
Vaini,0,IN,1547313495,87,15.34,74.49,62.72,2.15
Rikitea,88,PF,1547313279,99,-23.12,-134.97,79.14,14.56
Ponta do Sol,68,BR,1547313499,66,-20.63,-46,83.33,3.83
Kulhudhuffushi,32,MV,1547313502,100,6.62,73.07,82.43,8.63
Bowen,40,AU,1547308800,88,-20.01,148.25,71.6,6.93
Emerald,0,AU,1547308800,69,-23.53,148.16,75.2,8.05
Lima,0,PE,1547312400,69,-12.06,-77.04,78.8,16.11
Port Elizabeth,1,US,1547312160,31,39.31,-74.98,32,3.36
Hami,44,CN,1547313513,57,42.84,93.51,4.89,1.59
Keetmanshoop,0,NA,1547308800,6,-26.57,18.15,93.2,5.82
Hudson Bay,36,CA,1547313518,78,52.86,-102.4,12.09,6.73
Hofn,92,IS,1547313520,100,64.25,-15.21,35.31,10.76
Cabo San Lucas,5,MX,1547311320,64,22.89,-109.91,71.6,4.7
Lorengau,44,PG,1547313524,100,-2.02,147.27,81.89,15.79
Najran,5,SA,1547312400,40,17.54,44.22,68,4.7
Upernavik,32,GL,1547313528,100,72.79,-56.15,-5.6,14.23
Hobart,20,AU,1547310600,87,-42.88,147.33,50,8.05
Butaritari,68,KI,1547313533,100,3.07,172.79,82.88,10.98
Shakhtinsk,20,KZ,1547312400,84,49.71,72.59,8.6,2.24
Touros,40,BR,1547312400,55,-5.2,-35.46,91.4,18.34
Astoria,1,US,1547308500,76,46.19,-123.83,42.98,5.82
Klaksvik,92,FO,1547311800,87,62.23,-6.59,42.8,23.04
Orebro,68,SE,1547311800,86,59.27,15.21,28.4,2.24
Pimentel,44,BR,1547313546,65,-3.7,-45.5,88.19,4.61
Ixtapa,5,MX,1547311740,69,20.71,-105.21,78.8,1.48
Albany,20,US,1547312280,34,42.65,-73.75,23,9.17
Yarada,0,IN,1547312400,88,17.65,83.27,69.8,2.24
Mahebourg,40,MU,1547312400,74,-20.41,57.7,82.4,11.41
Port Alfred,0,ZA,1547313350,82,-33.59,26.89,69.96,4.38
Shubarshi,88,KZ,1547313560,88,48.59,57.19,23.97,17.92
Ushuaia,75,AR,1547312400,87,-54.81,-68.31,44.6,34.45
Lasa,20,CY,1547310600,71,34.92,32.53,57.2,8.05
Ribeira Grande,20,PT,1547310600,63,38.52,-28.7,62.6,21.92
Praia,75,BR,1547308800,43,-20.25,-43.81,87.8,9.17
Jalu,24,LY,1547313571,53,29.03,21.55,55.07,17.36
Sahuaripa,0,MX,1547313574,64,29.05,-109.23,62.04,2.26
San Patricio,68,PY,1547313576,100,-26.98,-56.83,73.65,4.38
Arraial do Cabo,20,BR,1547312400,70,-22.97,-42.02,89.6,16.11
Leningradskiy,8,RU,1547313581,100,69.38,178.42,-18.65,8.52
Pevek,0,RU,1547313277,58,69.7,170.27,-19.73,6.4
Busselton,0,AU,1547313304,100,-33.64,115.35,64.47,18.48
Taitung,64,TW,1547313587,100,22.76,121.15,66.14,13.78
Qaanaaq,0,GL,1547313590,67,77.48,-69.36,-23.15,6.96
East London,75,ZA,1547312400,68,-33.02,27.91,71.6,8.05
Codrington,40,AU,1547308800,93,-28.95,153.24,66.2,2.37
Kavieng,64,PG,1547313596,100,-2.57,150.8,82.02,11.65
Bria,0,CF,1547313598,73,6.54,21.99,77.39,2.82
Punta Arenas,75,CL,1547308800,53,-53.16,-70.91,50,36.91
Carnarvon,0,ZA,1547313603,35,-30.97,22.13,72.08,10.87
Sorong,44,ID,1547313605,100,-0.86,131.25,82.07,7.4
Salamiyah,0,SY,1547313607,70,35.01,37.05,31.62,3.71
Revelstoke,90,CA,1547308800,92,50.99,-118.19,28.4,1.81
Tianpeng,76,CN,1547313612,100,28.88,112.34,40.13,5.95
Sakaraha,64,MG,1547313614,87,-22.91,44.53,73.65,8.63
Katsuura,40,JP,1547312400,86,33.93,134.5,39.2,6.93
Yar-Sale,88,RU,1547313618,85,66.83,70.83,2.69,21.27
Avarua,75,CK,1547312400,94,-21.21,-159.78,77,2.24
Sidi Ali,0,DZ,1547313623,86,36.1,0.42,40.4,2.59
Saint George,75,GR,1547311800,78,39.45,22.34,37.4,6.93
Torbay,75,CA,1547311500,93,47.66,-52.73,33.8,16.11
Te Anau,80,NZ,1547313457,60,-45.41,167.72,47.37,6.96
Mwinilunga,80,ZM,1547313632,97,-11.73,24.43,64.43,2.48
Mataura,100,NZ,1547313292,89,-46.19,168.86,44.22,3.15
Faanui,80,PF,1547313636,100,-16.48,-151.75,82.34,22.62
Chokurdakh,80,RU,1547313401,34,70.62,147.9,-22.7,5.73
Pavino,48,RU,1547312400,76,55.02,82.61,-9.41,2.24
Bathsheba,40,BB,1547312400,61,13.22,-59.52,82.4,17.22
Aksarka,68,RU,1547313645,65,66.56,67.8,3,17.02
Goderich,68,CA,1547313648,85,43.74,-81.71,24.06,8.41
Longyearbyen,20,NO,1547311800,50,78.22,15.63,8.6,19.46
Seidu,0,NG,1547308800,13,8.32,4.47,95,8.05
Vila Velha,40,BR,1547312400,74,-3.71,-38.6,84.2,5.82
Khatanga,48,RU,1547313406,46,71.98,102.47,-28.64,13.44
Tiksi,44,RU,1547313659,38,71.64,128.87,-25.13,11.1
New Norfolk,20,AU,1547310600,87,-42.78,147.06,50,8.05
Kapaa,1,US,1547312160,87,22.08,-159.32,66.92,9.17
Alta Floresta,20,BR,1547308800,58,-9.87,-56.08,87.8,5.82
Ust-Maya,24,RU,1547313668,0,60.42,134.54,-34.53,2.59
Mount Gambier,0,AU,1547308800,93,-37.83,140.78,51.8,8.05
Jeremoabo,0,BR,1547313673,33,-10.08,-38.34,93.77,10.76
Hermanus,0,ZA,1547313675,50,-34.42,19.24,64.02,10.2
Fortuna,0,ES,1547310600,47,38.18,-1.13,57.2,4.7
Karratha,0,AU,1547313680,60,-20.74,116.85,74.82,2.71
Beloha,80,MG,1547313682,95,-25.17,45.06,74.69,3.04
Hilo,90,US,1547308380,87,19.71,-155.08,68,5.82
Sehithwa,0,BW,1547313686,69,-20.47,22.7,80.04,2.71
Tuktoyaktuk,90,CA,1547308800,76,69.44,-133.03,-11.21,8.05
Leon,90,US,1547312100,92,40.74,-93.75,29.84,12.75
College,0,US,1547312880,64,64.86,-147.8,-40.01,4.16
Yerbogachen,24,RU,1547313517,40,61.28,108.01,-13.11,3.6
Gamba,0,CN,1547313698,37,28.28,88.52,-9.29,6.96
Altay,20,CN,1547313700,81,47.83,88.13,1.7,2.26
Burns Lake,88,CA,1547313702,88,54.23,-125.76,30,2.37
Yellowknife,20,CA,1547308800,83,62.45,-114.38,-5.81,11.41
Zalantun,0,CN,1547313707,59,48,122.72,-2.27,2.59
Luxor,44,EG,1547312400,63,25.7,32.65,66.2,2.93
Mehamn,88,NO,1547313711,90,71.03,27.85,31.71,14.45
Tuatapere,92,NZ,1547313302,90,-46.13,167.69,55.88,13.11
Crib Point,8,AU,1547313716,100,-38.35,145.2,59.93,9.19
Rajmahal,0,IN,1547313718,82,25.05,87.83,50.97,2.82
Atuona,92,PF,1547313720,100,-9.8,-139.03,79.86,16.24
Nabire,80,ID,1547313722,98,-3.36,135.5,69.2,1.92
Cap-aux-Meules,90,CA,1547312400,72,47.38,-61.86,14,20.8
Alofi,0,NU,1547312400,94,-19.06,-169.92,71.6,5.82
Santa Cruz,90,US,1547312400,86,36.97,-122.03,53.6,6.93
Provideniya,0,RU,1547313733,100,64.42,-173.23,-11.45,15.57
Westerland,75,NL,1547312160,93,52.89,4.93,48.2,17.22
Steinbach,90,CA,1547310360,85,49.53,-96.69,17.6,8.05
Stepnyak,20,KZ,1547313740,72,52.83,70.79,0.57,14
Sibu,75,MY,1547312400,100,2.29,111.83,77,2.48
Mar del Plata,0,AR,1547313745,31,-46.43,-67.52,68.7,13.78
Itarema,44,BR,1547313286,91,-2.92,-39.92,80.63,5.17
Cherskiy,56,RU,1547313749,51,68.75,161.3,-17.3,1.92
Autazes,36,BR,1547313663,65,-3.58,-59.13,87.65,6.17
Chekhov,75,RU,1547312400,85,55.14,37.45,14,11.18
Bayburt,64,TR,1547313756,62,40.26,40.22,6.87,2.48
Jamestown,0,AU,1547313195,41,-33.21,138.6,64.74,9.98
Mahuva,0,IN,1547313760,96,21.09,71.76,71.09,1.36
Komsomolskiy,64,RU,1547313762,78,67.55,63.78,4.04,17.81
Trinidad,75,UY,1547312400,58,-33.52,-56.9,82.4,10.29
Saint Albans,1,US,1547312100,48,44.81,-73.08,14,5.82
Kaitangata,68,NZ,1547313769,84,-46.28,169.85,48.23,3.83
Waingapu,12,ID,1547313771,99,-9.65,120.26,73.79,2.93
Nikolskoye,0,RU,1547310600,92,59.7,30.79,23,11.18
Bambous Virieux,40,MU,1547312400,74,-20.34,57.76,82.4,11.41
Samana,90,EC,1547312400,100,0.12,-76.97,73.4,5.82
Kodiak,90,US,1547312100,99,39.95,-94.76,32,14.99
Biak,20,ID,1547313782,100,-0.91,122.88,76.67,1.7
Sembakung,88,ID,1547313784,98,3.82,117.25,74.78,2.15
Caxito,20,BR,1547312400,70,-22.65,-42.51,89.6,16.11
Chuy,76,UY,1547313065,87,-33.69,-53.46,75,13.67
Lebu,0,ET,1547312400,54,8.96,38.73,59,9.17
Jaguey Grande,40,CU,1547311800,57,22.53,-81.13,78.8,8.05
Marsh Harbour,88,BS,1547313609,100,26.54,-77.06,74.42,16.13
Savalou,12,BJ,1547313798,32,7.93,1.98,88.95,5.39
Port Hardy,75,CA,1547308800,76,50.7,-127.42,48.2,18.34
Camargo,0,MX,1547313802,69,27.69,-105.17,55.92,4.38
Meulaboh,24,ID,1547313804,100,4.14,96.13,78.02,2.48
Thompson,75,CA,1547308800,77,55.74,-97.86,3.2,10.29
Vallenar,0,CL,1547313809,65,-28.58,-70.76,70.55,3.15
Bonfim,32,GY,1547313811,40,3.36,-59.84,94.26,16.46
Mayo,90,CA,1547312400,76,63.59,-135.9,-9.41,2.71
Tamandare,92,BR,1547313816,98,-8.28,-70.75,73.79,5.39
Kirakira,80,SB,1547313818,100,-10.46,161.92,80.09,4.83
Hasaki,90,JP,1547312400,100,35.73,140.83,39.2,8.05
Corinto,36,BR,1547313823,56,-18.36,-44.46,88.82,5.28
Shieli,32,KZ,1547313825,52,44.18,66.74,8.22,5.17
Santa Isabel,75,CO,1547312400,61,4.71,-75.1,80.6,9.17
Mandan,90,US,1547313300,100,46.83,-100.89,15.08,4.7
Lata,92,IN,1547313832,100,30.78,78.62,32.75,1.48
Novosheshminsk,88,RU,1547313834,93,55.06,51.22,28.52,9.53
Santa Fe,36,AR,1547313837,75,-31.62,-60.7,82.88,11.65
Folldal,8,NO,1547313839,71,62.14,10,10.2,2.48
Weiz,75,AT,1547311800,69,47.22,15.62,35.6,2.24
Keti Bandar,0,PK,1547313844,100,24.14,67.45,69.15,11.77
San Ramon de la Nueva Oran,20,AR,1547313846,99,-23.13,-64.33,78.42,4.94
Daugai,90,LT,1547311800,92,54.36,24.35,32,6.93
Souillac,90,FR,1547310600,93,45.6,-0.6,42.8,3.36
Poum,0,MK,1547313853,73,41.28,20.71,8,1.92
Victoria,75,BN,1547312400,88,5.28,115.24,82.4,3.36
Amahai,8,ID,1547313857,100,-3.31,129,83.37,8.41
Mandalgovi,0,MN,1547313859,54,45.76,106.27,-7.85,3.04
Barrow,24,AR,1547313862,68,-38.31,-60.23,83.64,13.56
Sambava,56,MG,1547313864,100,-14.27,50.17,79.37,3.38
Kenai,40,US,1547312160,71,60.55,-151.26,3.02,10.29
Atlantic Beach,90,US,1547312160,65,30.33,-81.4,71.6,12.75
Inongo,36,CD,1547313870,95,-1.93,18.29,76.49,2.59
Rome,0,IT,1547311800,60,41.89,12.48,48.2,4.7
Pisco,0,PE,1547312400,30,-13.71,-76.2,71.6,24.16
Mazatlan,5,MX,1547311320,65,23.22,-106.42,77,3.36
Choix,0,MX,1547313879,66,26.71,-108.33,66.09,2.59
Pangnirtung,40,CA,1547308800,67,66.15,-65.72,-27.41,4.7
Sukhobezvodnoye,76,RU,1547313884,83,57.05,44.89,14.03,6.51
Nanortalik,92,GL,1547313315,92,60.14,-45.24,30.54,15.9
Mount Pleasant,75,US,1547313300,66,33.16,-94.97,51.26,13.87
Merrill,1,US,1547311980,88,42.03,-121.6,30.92,4.7
Bilma,20,NE,1547313893,19,18.69,12.92,67.94,9.98
Port Lincoln,20,AU,1547313444,98,-34.72,135.86,62.9,13.22
Labuhan,76,ID,1547313898,96,-2.54,115.51,73.43,1.7
San Quintin,0,PH,1547313900,81,17.54,120.52,63.89,2.59
Miri,0,NG,1547313902,27,10.31,9.75,76.49,5.73
Stonewall,90,CA,1547312400,79,50.13,-97.33,19.4,9.17
Aykhal,24,RU,1547313907,43,65.95,111.51,-28.37,4.05
Tasiilaq,75,GL,1547311800,67,65.61,-37.64,17.6,12.75
Mindelo,0,PT,1547310600,62,41.31,-8.72,57.2,6.93
Sao Joao da Barra,20,BR,1547312400,49,-21.64,-41.05,89.6,13.87
Gao,36,ML,1547313916,21,16.28,-0.04,77.52,7.29
Iqaluit,75,CA,1547313000,67,63.75,-68.52,-23.81,24.16
Jining,0,CN,1547313920,70,35.41,116.58,22.13,2.82
Cidreira,80,BR,1547313923,89,-30.17,-50.22,77.75,14.79
Chizhou,68,CN,1547313925,89,30.67,117.49,31.85,3.38
Luderitz,32,NA,1547313463,87,-26.65,15.16,64.07,6.17
Leninogorsk,88,RU,1547313929,93,54.6,52.45,31.26,9.31
Puerto Ayora,20,EC,1547312400,65,-0.74,-90.35,82.4,5.82
Nantucket,1,US,1547312160,36,41.28,-70.1,26.96,16.11
Pau dos Ferros,12,BR,1547313936,66,-6.11,-38.21,85.22,4.72
Honningsvag,88,NO,1547313938,100,70.98,25.97,32.84,20.49
Vilyuysk,32,RU,1547313940,44,63.75,121.63,-14.46,6.4
Bethel,90,US,1547312160,76,60.79,-161.76,-14.98,21.92
Upata,12,VE,1547313945,50,8.02,-62.41,85.58,9.31
Dabat,0,ET,1547313948,24,12.98,37.77,56.55,2.15
Saint-Philippe,1,CA,1547312400,60,45.36,-73.48,10.4,11.41
Vestmannaeyjar,90,IS,1547312400,100,63.44,-20.27,37.4,6.93
Norman Wells,75,CA,1547312400,65,65.28,-126.83,-34.61,3.38
Makakilo City,1,US,1547312220,89,21.35,-158.09,69.08,4.7
Virginia Beach,90,US,1547312340,52,36.85,-75.98,42.08,8.05
Kutahya,75,TR,1547311800,93,39.42,29.98,37.4,2.59
Snasa,88,NO,1547313963,92,64.25,12.38,26.18,2.37
Nanhai,68,CN,1547313965,98,30.13,111.78,35.31,2.71
Dehloran,36,IR,1547313968,81,32.69,47.27,41.79,3.49
Bredasdorp,0,ZA,1547312400,36,-34.53,20.04,75.2,16.11
Okha,0,RU,1547313972,80,53.59,142.95,4.35,13.67
Prince Albert,75,CA,1547312400,84,53.2,-105.75,6.8,2.24
Saldanha,0,PT,1547313976,92,41.42,-6.55,35.63,4.61
Kokopo,12,PG,1547313979,100,-4.34,152.27,78.92,2.26
Vanimo,64,PG,1547313981,100,-2.67,141.3,80.04,13.78
Antigonish,75,CA,1547312400,56,45.62,-61.99,15.8,13.87
Cerrito,40,CO,1547312400,65,6.84,-72.7,77,6.93
Tuensang,8,IN,1547313988,89,26.24,94.81,47.19,2.93
Lakes Entrance,36,AU,1547313990,94,-37.88,147.99,63.8,0.69
Tolga,20,DZ,1547308800,47,34.73,5.38,57.2,19.46
Mujiayingzi,0,CN,1547313994,68,42.12,118.78,8.22,3.83
San Juan,0,AR,1547313756,36,-31.54,-68.53,85.17,3.94
Yunyang,0,CN,1547314000,75,32.84,110.81,20.37,2.48
Northam,75,GB,1547311800,81,51.04,-4.21,51.8,17.22
Kasempa,44,ZM,1547314005,89,-13.46,25.83,69.29,4.94
Kahului,40,US,1547312160,84,20.89,-156.47,69.98,3.94
Tijucas,20,BR,1547312400,74,-27.24,-48.64,86,10.29
Egvekinot,0,RU,1547314012,0,66.32,-179.17,-45.56,3.71
Rumonge,92,BI,1547314014,100,-3.97,29.44,71.18,4.72
Atambua,0,ID,1547314017,100,-9.11,124.89,79.32,4.38
Biltine,0,TD,1547314019,30,14.53,20.93,75.59,6.4
Port-Cartier,75,CA,1547312400,62,50.03,-66.88,24.8,8.05
Ormara,0,PK,1547314023,96,25.21,64.64,68.34,4.94
Dikson,48,RU,1547314026,100,73.51,80.55,-17.03,31.79
Talnakh,0,RU,1547314028,0,69.49,88.39,-43.76,7.29
Weinan,0,CN,1547312400,92,34.5,109.46,19.4,2.24
Baykit,20,RU,1547314032,47,61.68,96.39,-30.03,3.6
Luanda,75,AO,1547312400,78,-8.83,13.24,80.6,9.17
San Cosme y Damian,40,PY,1547312400,62,-27.32,-56.35,89.6,5.82
Puerto Quijarro,40,BO,1547312400,52,-19,-57.72,91.4,5.82
Phangnga,20,TH,1547312400,94,8.45,98.53,75.2,4.16
Vuktyl,88,RU,1547314044,69,63.86,57.31,14.7,9.64
Marawi,36,PH,1547314046,99,8,124.29,66.23,2.15
Fort Nelson,40,CA,1547312400,76,58.81,-122.69,-9.41,2.24
Muzhi,76,RU,1547314050,78,65.4,64.7,6.83,15.46
Petrovsk-Zabaykalskiy,0,RU,1547314053,39,51.27,108.84,-13.88,2.37
Guiyang,90,CN,1547312400,93,26.58,106.71,41,6.71
Ailigandi,88,PA,1547314057,74,9.23,-78.02,80.45,6.96
Puerto Princesa,44,PH,1547314060,100,9.74,118.73,79.86,18.03
Christchurch,8,NZ,1547312400,93,-43.53,172.64,55.4,8.05
Brindisi,0,IT,1547311800,52,40.63,17.94,46.4,17.22
Santa Rosa,24,AR,1547314068,79,-36.62,-64.29,83.46,5.73
Cururupu,20,BR,1547314070,70,-1.82,-44.87,86.16,7.18
Nan,68,TH,1547314072,93,18.78,100.78,67.13,1.59
Kathmandu,20,NP,1547311800,81,27.71,85.32,46.4,3.36
Petatlan,5,MX,1547311500,51,17.52,-101.27,86,2.04
Kasongo-Lunda,76,CD,1547314079,92,-6.48,16.82,71,2.93
Eyl,12,SO,1547314081,93,7.98,49.82,74.46,18.37
Hervey Bay,76,AU,1547312400,88,-25.3,152.85,68,8.05
Quesnel,90,CA,1547312400,65,52.98,-122.49,35.6,4.16
Acapulco,5,MX,1547311500,66,16.86,-99.88,84.2,2.24
Marystown,76,CA,1547314090,92,47.17,-55.16,30.14,19.71
Kabanjahe,40,ID,1547312400,94,3.1,98.49,75.2,3.36
Matay,0,EG,1547314095,51,28.42,30.79,51.06,8.97
Sharjah,0,AE,1547312400,60,25.36,55.39,71.6,5.82
Addanki,8,IN,1547314099,90,15.81,79.97,63.39,2.82
Laguna,5,MX,1547311260,77,27.52,-110.01,66.2,3.36
Gizo,0,IL,1547311800,71,31.8,34.94,57.2,1.12
Whitehorse,75,CA,1547312400,76,60.72,-135.06,-11.21,3.36
Sao Felix do Xingu,32,BR,1547314108,70,-6.64,-51.99,85.71,2.71
Saravan,40,AM,1547312400,79,39.72,45.65,33.8,6.93
Castro,40,CL,1547312400,77,-42.48,-73.76,59,8.05
Ponta Delgada,75,PT,1547310600,82,37.73,-25.67,60.8,17.22
Thinadhoo,68,MV,1547314117,100,0.53,72.93,82.88,7.63
Estelle,90,US,1547313300,68,32.87,-97.01,48.02,21.92
Colac,0,AU,1547314122,86,-38.34,143.59,55.7,4.38
Leua,92,AO,1547314124,75,-11.65,20.45,73.11,2.59
Erenhot,0,CN,1547314126,49,43.65,111.97,-4.79,3.94
Zhovti Vody,90,UA,1547312400,85,48.35,33.5,24.8,13.42
Amguri,0,IN,1547314131,85,26.81,94.53,49.67,2.15
Boksitogorsk,44,RU,1547314133,90,59.47,33.85,24.96,5.73
Reo,0,BF,1547314135,20,12.32,-2.47,85.67,7.29
Houma,0,CN,1547314138,75,35.63,111.36,10.29,0.92
Xai-Xai,20,MZ,1547314141,95,-25.04,33.64,79.14,18.14
Yining,88,CN,1547314143,96,29.04,114.56,39.95,2.59
Novo Aripuana,32,BR,1547314145,69,-5.12,-60.38,86.57,2.93
Lenger,0,KZ,1547312400,46,42.18,69.89,32,4.47
Chapais,90,CA,1547312880,76,49.78,-74.86,-4.01,9.17
Kavaratti,0,IN,1547314152,100,10.57,72.64,81.84,4.94
Winnemucca,1,US,1547312160,60,40.97,-117.74,30.02,12.75
Sibolga,80,ID,1547314156,100,1.74,98.78,69.42,2.26
Tacuati,0,PY,1547314159,52,-23.46,-56.74,93.45,3.83
Mirnyy,88,RU,1547314161,90,56.57,36.46,19.65,12.21
Yeniseysk,44,RU,1547314163,65,58.45,92.17,-8.3,6.29
Kaputa,80,ZM,1547314165,99,-8.47,29.66,65.19,2.37
Coihaique,40,CL,1547312400,43,-45.58,-72.07,57.2,10.29
Anadyr,0,RU,1547312400,68,64.73,177.51,-14.81,11.18
Srednekolymsk,88,RU,1547314172,31,67.46,153.71,-21.21,3.04
Benghazi,48,LY,1547314174,100,32.12,20.07,58.62,34.14
Rio Gallegos,75,AR,1547312400,37,-51.62,-69.22,53.6,35.57
Manokwari,44,ID,1547314179,100,-0.87,134.08,77.03,4.61
Tabuk,48,PH,1547314181,93,17.41,121.44,62.49,1.59
Huarmey,12,PE,1547314171,49,-10.07,-78.15,80.85,5.95
Berlevag,80,NO,1547314186,100,70.86,29.09,26.31,2.71
Miraflores,80,CO,1547314188,89,5.2,-73.14,56.64,2.48
Nome,90,US,1547313300,68,30.04,-94.42,67.1,12.75
Vila Franca do Campo,75,PT,1547310600,82,37.72,-25.43,60.8,17.22
Ouango,8,CD,1547314195,60,4.31,22.55,82.65,2.93
Narsaq,75,GL,1547311800,69,60.91,-46.05,33.8,3.36
Erzincan,56,TR,1547311800,84,39.75,39.49,8.6,1.92
Kidal,20,ML,1547314202,14,18.44,1.41,67.71,6.73
Sobolevo,88,RU,1547314205,92,54.43,31.9,25.95,12.44
Concarneau,90,FR,1547312400,93,47.88,-3.92,50,12.75
Majene,56,ID,1547314210,100,-3.54,118.97,82.25,6.85
Severo-Kurilsk,80,RU,1547314185,99,50.68,156.12,32.07,17.47
Clyde,92,NZ,1547314214,86,-45.19,169.32,39.77,2.59
Dingle,68,PH,1547314216,94,11,122.67,74.69,10.54
Saint Anthony,90,US,1547312400,83,43.97,-111.68,19.04,3.36
Guane,68,CU,1547314221,64,22.2,-84.09,78.96,8.41
Shenjiamen,0,CN,1547314224,100,29.96,122.3,45.53,13.33
Lagoa,0,PT,1547310600,47,37.14,-8.45,59,10.29
Tazovskiy,76,RU,1547314228,43,67.47,78.7,-14.01,21.83
Menongue,48,AO,1547314230,20,-14.66,17.68,84.36,4.83
Russell,0,AR,1547312400,45,-33.01,-68.8,82.4,8.05
Roebourne,0,AU,1547314235,60,-20.77,117.15,74.82,2.71
Parana,90,BR,1547312400,83,-7.52,-72.89,78.8,1.7
Ilam,40,IR,1547312400,48,33.64,46.42,41,4.7
Goianapolis,40,BR,1547312400,43,-16.51,-49.02,89.6,6.93
Bergerac,90,FR,1547312400,87,44.85,0.49,44.6,2.24
Coquimbo,0,CL,1547312400,60,-29.95,-71.34,68,16.11
Naze,12,NG,1547312400,44,5.43,7.07,93.2,4.72
Namibe,0,AO,1547314251,100,-15.19,12.15,75.14,11.54
Kuzhener,88,RU,1547314253,78,56.81,48.92,10.47,5.61
Paamiut,88,GL,1547314102,91,61.99,-49.67,33.83,22.84
Umm Lajj,32,SA,1547314257,99,25.02,37.27,70.73,6.51
Alice Springs,32,AU,1547312400,28,-23.7,133.88,86,6.93
Douentza,0,ML,1547314262,21,15.01,-2.95,76.22,6.17
Moissac,90,FR,1547312400,75,44.11,1.08,44.6,2.24
Port-Gentil,75,GA,1547312400,88,-0.72,8.78,80.6,13.87
Georgetown,75,GY,1547312400,66,6.8,-58.16,84.2,13.87
Mangai,44,CD,1547314272,79,-4.07,19.59,79.95,3.15
Saskylakh,0,RU,1547314274,0,71.97,114.09,-53.16,4.72
Ban Nahin,12,LA,1547314276,81,18.24,104.21,68.07,2.37
Dhangadhi,24,NP,1547314278,83,28.7,80.57,47.42,2.93
Masyaf,20,SY,1547312400,57,35.06,36.34,51.8,6.93
Brownwood,20,US,1547313300,67,31.71,-98.99,48.2,19.46
Nara,75,JP,1547312400,87,34.68,135.8,42.8,5.82
Maceio,40,BR,1547312400,51,-9.67,-35.74,86,20.8
Bafia,8,CM,1547314290,46,4.74,11.22,84.72,2.04
Pathein,56,MM,1547314292,86,16.78,94.73,72.66,6.73
Mecca,0,SA,1547314207,46,21.43,39.83,74.01,5.73
Uinskoye,88,RU,1547314296,84,56.88,56.58,22.67,9.98
Esso,56,RU,1547314299,91,55.93,158.7,12.45,1.81
Ubinskoye,80,RU,1547314301,69,55.31,79.68,-1.01,7.74
Mabaruma,8,GY,1547314303,67,8.2,-59.78,83.24,8.86
Bennettsville,90,US,1547314500,48,34.62,-79.68,42.98,5.82
Jieshi,48,CN,1547314308,97,22.82,115.83,61.32,13.67
Airai,20,TL,1547314310,87,-8.93,125.41,68.3,1.92
Hamilton,90,CA,1547312400,73,43.26,-79.87,24.8,10.29
Sweetwater,90,US,1547312160,63,32.47,-100.41,44.96,14.99
Rocha,36,UY,1547314317,62,-34.48,-54.34,78.87,11.21
High Level,20,CA,1547312400,92,58.52,-117.13,6.8,6.93
Susuman,44,RU,1547314321,42,62.78,148.15,-29.27,2.59
Baoning,90,CN,1547312400,93,25.34,110.03,46.4,6.71
Hwange,48,ZW,1547314326,56,-18.35,26.5,77.61,4.94
Ustka,92,PL,1547314328,97,54.58,16.86,39.59,16.24
Kaabong,0,UG,1547314330,26,3.51,34.14,71.04,8.52
Chalmette,90,US,1547313300,81,29.94,-89.96,68,9.17
Bartica,75,GY,1547312400,58,6.41,-58.62,84.2,13.87
Orocue,64,CO,1547314337,35,4.79,-71.34,94.13,16.46
Muros,40,ES,1547312400,75,42.77,-9.06,51.8,9.17
Hashtgerd,40,IR,1547312400,43,35.96,50.69,37.4,9.17
Rena,12,NO,1547314343,92,61.13,11.37,17.09,2.26
Pringsewu,24,ID,1547314193,94,-5.36,104.98,73.97,1.59
Trenton,1,US,1547313300,44,40.22,-74.74,33.08,4.7
Kerouane,0,GN,1547314350,26,12.23,-12.34,89.67,2.26
Alcala de Guadaira,0,ES,1547312400,30,37.34,-5.84,57.2,6.93
Margate,20,AU,1547312400,81,-43.03,147.26,50,9.17
Valley City,90,US,1547313360,100,46.92,-98,21.02,5.82
Missoula,90,US,1547311980,84,46.87,-114,21.02,6.93
Vao,0,EE,1547314235,89,59.1,26.19,23.57,7.18
Kipini,20,KE,1547312100,78,-2.53,40.53,80.06,3.36
Saint-Augustin,75,FR,1547312400,87,44.83,-0.61,46.4,5.82
Gat,0,SN,1547312400,16,14.69,-16.54,96.8,1.92
Port Hedland,75,AU,1547312400,94,-20.31,118.58,80.6,5.82
Meru,0,KE,1547314373,68,0.05,37.65,62,3.38
Marsa Matruh,0,EG,1547312400,35,31.35,27.25,57.2,12.75
Salinas,20,US,1547312400,82,36.67,-121.66,53.6,11.41
Quatre Cocos,40,MU,1547312400,74,-20.21,57.76,82.4,11.41
La Ronge,75,CA,1547312400,85,55.1,-105.3,12.2,6.93
Zhanaozen,0,KZ,1547314385,69,43.35,52.85,38.64,13.22
Campo Maior,0,ES,1547312400,46,39.01,-7.07,53.6,4.7
Buala,48,SB,1547314389,99,-8.15,159.59,79.95,5.73
Tautira,75,PF,1547312400,83,-17.73,-149.15,80.6,12.75
Inhambane,20,MZ,1547312400,94,-23.87,35.38,84.2,13.87
Lompoc,40,US,1547313300,82,34.64,-120.46,55.94,5.82
Padang,20,ID,1547312400,94,-0.92,100.36,77,3.36
Esperance,20,TT,1547312400,51,10.24,-61.45,86,12.75
Garden City,90,US,1547313300,35,40.73,-73.63,31.82,3.71
Sompeta,0,IN,1547314405,83,18.93,84.6,58.04,1.81
Krasnyy,76,RU,1547314407,80,53.81,40.7,9.84,11.99
Nurota,0,UZ,1547312400,88,40.56,65.69,33.8,9.17
Mtwango,100,TZ,1547314412,98,-9.02,34.8,62.18,3.27
Flinders,24,AU,1547314172,83,-34.58,150.85,69.29,7.74
Dongsheng,92,CN,1547314416,94,29.72,112.52,37.92,3.15
Varkaus,0,FI,1547313600,85,62.32,27.87,21.2,10.29
Soe,24,EE,1547311800,100,57.91,26.05,24.8,11.41
North Myrtle Beach,1,US,1547312400,56,33.83,-78.68,48.92,8.05
Cayenne,20,GF,1547312400,62,4.94,-52.33,86,13.87
Malanville,0,NE,1547314428,32,11.86,3.39,83.37,4.61
Zinder,0,NE,1547312400,8,13.81,8.99,87.8,6.93
Ancud,40,CL,1547312400,77,-41.87,-73.83,59,8.05
Charters Towers,36,AU,1547314397,82,-20.07,146.27,70.37,5.61
Castanos,5,MX,1547311200,55,26.78,-101.42,64.4,4.7
Along,0,IN,1547314244,49,28.17,94.8,48.36,2.59
Puquio,76,PE,1547314441,45,-14.69,-74.12,59.25,4.05
Sayan,0,YE,1547314443,78,15.88,43.46,68.93,2.59
Nogent-le-Rotrou,90,FR,1547312400,100,48.32,0.82,46.4,13.87
Rumoi,80,JP,1547314448,90,43.93,141.67,22.71,4.61
Ejura,12,GH,1547314450,46,7.38,-1.37,88.37,4.16
Deputatskiy,44,RU,1547314452,0,69.3,139.9,-34.26,2.71
Viedma,64,AR,1547314312,32,-40.81,-62.99,81.12,5.73
Ipixuna,75,BR,1547312400,74,-1.76,-48.8,82.4,4.7
Coolum Beach,88,AU,1547314406,87,-26.53,153.09,75.45,7.4
Benguela,0,AO,1547314461,96,-12.58,13.4,78.92,7.52
San Cristobal,75,EC,1547312400,46,-0.39,-78.55,69.8,6.93
Broome,75,GB,1547312160,81,52.47,1.45,48.2,18.34
Port Macquarie,0,AU,1547312760,93,-31.43,152.91,66.2,5.95
Zhigalovo,76,RU,1547314470,39,54.81,105.15,-13.79,2.37
Ilulissat,75,GL,1547311800,47,69.22,-51.1,-9.41,9.17
Batagay-Alyta,24,RU,1547314475,50,67.8,130.41,-31.83,3.71
Millport,90,GB,1547313600,87,55.75,-4.92,51.8,19.46
Portland,20,US,1547311980,82,45.52,-122.67,44.96,4.7
Madang,92,PG,1547314481,100,-5.21,145.81,72.39,5.28
Marsabit,8,KE,1547314484,47,2.34,37.99,74.01,6.73
Madimba,8,CM,1547308800,79,4.42,9.93,86,4.7
Puerto Escondido,5,MX,1547311500,69,15.86,-97.07,82.4,9.17
Dzhankoy,32,UA,1547314490,83,45.71,34.39,25.59,3.27
Hit,44,IQ,1547314493,88,33.64,42.83,41.79,6.51
Krasnyy Chikoy,0,RU,1547314316,46,50.36,108.75,-17.66,2.26
Kisangani,8,CD,1547314497,83,0.52,25.21,78.87,2.26
Tual,56,ID,1547314499,100,-5.67,132.75,82.11,11.21
Veraval,90,FR,1547312400,93,49.65,0.71,48.2,11.41
Bandraboua,80,YT,1547312400,94,-12.7,45.12,78.8,8.05
Kiunga,64,PG,1547314506,98,-6.12,141.3,73.74,2.15
Sitka,76,US,1547314508,89,37.17,-99.65,34.95,18.03
Brae,92,GB,1547313600,87,60.4,-1.35,44.6,13.87
Palana,0,RU,1547314513,60,59.08,159.95,4.58,2.82
Naples,75,US,1547313300,54,26.14,-81.79,80.6,12.75
Sangar,12,RU,1547314517,0,63.92,127.47,-29.54,4.72
Chute-aux-Outardes,90,CA,1547313120,60,49.12,-68.38,10.4,11.41
Mana,40,RS,1547314200,81,43.52,20.24,32,2.24
Mbala,68,ZM,1547314524,95,-8.85,31.37,64.47,4.05
Sorland,64,NO,1547314526,100,67.67,12.69,35.63,12.66
Xining,0,CN,1547314239,55,36.62,101.77,-3.17,2.15
Benton Harbor,90,US,1547313360,66,42.12,-86.45,30.56,10.29
Horodyshche,90,UA,1547312400,92,50.76,29.29,24.8,8.95
Geraldton,5,CA,1547312400,64,49.72,-86.95,-4.01,3.38
Baisha,80,CN,1547314537,100,19.23,109.45,68.57,1.59
Mutoko,24,ZW,1547314539,91,-17.4,32.23,71.54,3.71
Progreso,0,UY,1547312400,47,-34.68,-56.22,80.6,4.7
Beira,90,ES,1547312400,71,43.2,-8.36,50,11.41
Neudorfl,75,AT,1547313600,69,47.78,16.28,39.2,17.22
Middelburg,48,ZA,1547314549,52,-25.77,29.46,75.68,4.94
Beroroha,88,MG,1547314551,93,-21.68,45.17,74.6,2.04
Havelock,90,US,1547312280,65,34.88,-76.9,46.94,13.87
Hamada,64,JP,1547314556,100,34.9,132.08,41.03,5.95
Ostrovnoy,88,RU,1547314558,93,68.05,39.51,19.47,4.83
Guerrero Negro,48,MX,1547314560,90,27.97,-114.04,58.62,3.94
Bartow,75,US,1547314500,48,27.9,-81.84,77.18,8.05
Filadelfia,20,PY,1547314565,79,-22.35,-60.04,88.64,6.62
Mehriz,0,IR,1547312400,18,31.58,54.44,39.2,1.92
Coahuayana,0,MX,1547314569,45,18.62,-100.35,78.29,3.04
Hualmay,0,PE,1547314278,59,-11.1,-77.61,79.1,8.63
Norrtalje,0,SE,1547311800,79,59.76,18.7,28.4,5.82
Hastings,32,NZ,1547314329,100,-39.64,176.84,64.56,13
Wenatchee,90,US,1547312100,95,47.42,-120.31,32,1.36
Kachkanar,68,RU,1547314580,75,58.7,59.48,15.83,8.41
Fayaoue,88,NC,1547314582,100,-20.65,166.53,78.51,10.31
Mezen,92,RU,1547314585,77,65.85,44.24,22.35,8.86
Palu,68,ID,1547314587,95,-0.9,119.87,66.68,1.59
Buarcos,0,PT,1547312400,54,40.16,-8.88,55.4,6.93
Sabang,92,PH,1547314592,98,13.72,123.58,76.8,10.98
Anloga,20,GH,1547312400,79,5.79,0.9,86,11.41
Naron,90,ES,1547312400,71,43.52,-8.15,50,11.41
Mahibadhoo,88,MV,1547314598,100,3.78,72.97,81.84,12.66
Minab,36,IR,1547312400,13,27.15,57.07,69.8,4.7
Caravelas,0,BR,1547314603,100,-17.73,-39.27,80.94,11.1
Maningrida,80,AU,1547314605,100,-12.05,134.23,75.9,6.17
Pontianak,80,ID,1547314607,96,-0.02,109.34,78.2,3.94
Palm Valley,1,US,1547313300,59,26.2,-97.75,75.92,9.17
Hambantota,92,LK,1547314612,100,6.12,81.12,78.02,13.22
Palmer,20,US,1547312280,82,61.6,-149.11,3.02,3.04
Husavik,68,CA,1547314617,89,50.56,-96.99,15.87,6.62
Namatanai,56,PG,1547314619,100,-3.66,152.44,82.74,14.34
Tessalit,48,ML,1547314621,15,20.2,1.01,62.09,7.74
Rovaniemi,0,FI,1547313600,73,66.5,25.72,23,11.41
Semporna,75,MY,1547308800,94,4.48,118.61,77,2.24
Lluta,75,PE,1547312400,67,-16.02,-72.01,59,11.41
Baker City,1,US,1547311980,72,44.77,-117.83,35.06,12.75
Uturoa,92,PF,1547314632,100,-16.73,-151.43,82.11,21.61
Biskamzha,8,RU,1547314635,65,53.45,89.53,-5.6,3.38
Pokhara,0,NP,1547314637,71,28.21,83.99,34.19,2.37
Maragogi,80,BR,1547314639,95,-9.01,-35.22,77.84,10.2
Kupang,64,ID,1547314641,98,-10.16,123.6,80.49,4.94
Kurchum,56,KZ,1547314644,78,48.57,83.65,8.54,0.81
Paraibano,24,BR,1547314646,77,-6.43,-43.99,83.24,3.38
Campina Grande do Sul,40,BR,1547308800,58,-25.3,-49.05,82.4,6.93
Tigzirt,92,DZ,1547314650,100,36.57,4.2,40.94,2.15
Constitucion,5,MX,1547311800,53,23.99,-104.67,50,4.16
Tigil,0,RU,1547314655,77,57.8,158.67,4.94,5.28
Albury,0,AU,1547312400,44,-36.08,146.92,75.2,9.17
Oranjemund,20,ZA,1547314659,92,-28.55,16.43,65.37,3.38
Lagos,12,NG,1547312400,74,6.46,3.39,87.8,6.93
Lavrentiya,12,RU,1547314664,90,65.58,-170.99,-10.55,24.52
Belmonte,0,PT,1547314666,63,40.36,-7.35,42.02,7.4